[
    {
        "model": "accounts.livingarea",
        "pk": 1,
        "fields": {
            "area_name": "경상남도 합천군 가회면",
            "people_count": 0,
            "latitude": "35.482372",
            "longitude": "128.00266"
        }
    },
    {
        "model": "accounts.livingarea",
        "pk": 2,
        "fields": {
            "area_name": "서울특별시 종로구 청운효자동",
            "people_count": 0,
            "latitude": "37.58449",
            "longitude": "126.967926"
        }
    },
    {
        "model": "accounts.livingarea",
        "pk": 3,
        "fields": {
            "area_name": "서울특별시 종로구 사직동",
            "people_count": 0,
            "latitude": "37.57806",
            "longitude": "126.972855"
        }
    },
    {
        "model": "accounts.livingarea",
        "pk": 4,
        "fields": {
            "area_name": "서울특별시 종로구 삼청동",
            "people_count": 0,
            "latitude": "37.58281",
            "longitude": "126.980675"
        }
    },
    {
        "model": "accounts.livingarea",
        "pk": 5,
        "fields": {
            "area_name": "서울특별시 종로구 부암동",
            "people_count": 0,
            "latitude": "37.592415",
            "longitude": "126.96406"
        }
    },
    {
        "model": "accounts.livingarea",
        "pk": 6,
        "fields": {
            "area_name": "서울특별시 종로구 평창동",
            "people_count": 0,
            "latitude": "37.619373",
            "longitude": "126.9593"
        }
    },
    {
        "model": "accounts.livingarea",
        "pk": 7,
        "fields": {
            "area_name": "서울특별시 종로구 무악동",
            "people_count": 0,
            "latitude": "37.575985",
            "longitude": "126.958244"
        }
    },
    {
        "model": "accounts.livingarea",
        "pk": 8,
        "fields": {
            "area_name": "서울특별시 종로구 교남동",
            "people_count": 0,
            "latitude": "37.568382",
            "longitude": "126.96464"
        }
    },
    {
        "model": "accounts.livingarea",
        "pk": 9,
        "fields": {
            "area_name": "서울특별시 종로구 가회동",
            "people_count": 0,
            "latitude": "37.580097",
            "longitude": "126.98479"
        }
    },
    {
        "model": "accounts.livingarea",
        "pk": 10,
        "fields": {
            "area_name": "서울특별시 종로구 종로1·2·3·4가동",
            "people_count": 0,
            "latitude": "37.580193",
            "longitude": "126.976776"
        }
    },
    {
        "model": "accounts.livingarea",
        "pk": 11,
        "fields": {
            "area_name": "서울특별시 종로구 종로5·6가동",
            "people_count": 0,
            "latitude": "37.573746",
            "longitude": "127.00013"
        }
    },
    {
        "model": "accounts.livingarea",
        "pk": 12,
        "fields": {
            "area_name": "서울특별시 종로구 이화동",
            "people_count": 0,
            "latitude": "37.576996",
            "longitude": "127.00434"
        }
    },
    {
        "model": "accounts.livingarea",
        "pk": 13,
        "fields": {
            "area_name": "서울특별시 종로구 혜화동",
            "people_count": 0,
            "latitude": "37.582344",
            "longitude": "126.99121"
        }
    },
    {
        "model": "accounts.livingarea",
        "pk": 14,
        "fields": {
            "area_name": "서울특별시 종로구 창신제1동",
            "people_count": 0,
            "latitude": "37.575226",
            "longitude": "127.012825"
        }
    },
    {
        "model": "accounts.livingarea",
        "pk": 15,
        "fields": {
            "area_name": "서울특별시 종로구 창신제2동",
            "people_count": 0,
            "latitude": "37.575226",
            "longitude": "127.012825"
        }
    },
    {
        "model": "accounts.livingarea",
        "pk": 16,
        "fields": {
            "area_name": "서울특별시 종로구 창신제3동",
            "people_count": 0,
            "latitude": "37.575226",
            "longitude": "127.012825"
        }
    },
    {
        "model": "accounts.livingarea",
        "pk": 17,
        "fields": {
            "area_name": "서울특별시 종로구 숭인제1동",
            "people_count": 0,
            "latitude": "37.574528",
            "longitude": "127.0196"
        }
    },
    {
        "model": "accounts.livingarea",
        "pk": 18,
        "fields": {
            "area_name": "서울특별시 종로구 숭인제2동",
            "people_count": 0,
            "latitude": "37.574528",
            "longitude": "127.0196"
        }
    },
    {
        "model": "accounts.livingarea",
        "pk": 19,
        "fields": {
            "area_name": "서울특별시 중구 소공동",
            "people_count": 0,
            "latitude": "37.5639",
            "longitude": "126.9798"
        }
    },
    {
        "model": "accounts.livingarea",
        "pk": 20,
        "fields": {
            "area_name": "서울특별시 중구 회현동",
            "people_count": 0,
            "latitude": "37.557697",
            "longitude": "126.97756"
        }
    },
    {
        "model": "accounts.livingarea",
        "pk": 21,
        "fields": {
            "area_name": "서울특별시 중구 명동",
            "people_count": 0,
            "latitude": "37.568153",
            "longitude": "126.979"
        }
    },
    {
        "model": "accounts.livingarea",
        "pk": 22,
        "fields": {
            "area_name": "서울특별시 중구 필동",
            "people_count": 0,
            "latitude": "37.562263",
            "longitude": "126.99432"
        }
    },
    {
        "model": "accounts.livingarea",
        "pk": 23,
        "fields": {
            "area_name": "서울특별시 중구 장충동",
            "people_count": 0,
            "latitude": "37.561455",
            "longitude": "127.000374"
        }
    },
    {
        "model": "accounts.livingarea",
        "pk": 24,
        "fields": {
            "area_name": "서울특별시 중구 광희동",
            "people_count": 0,
            "latitude": "37.562263",
            "longitude": "126.99432"
        }
    },
    {
        "model": "accounts.livingarea",
        "pk": 25,
        "fields": {
            "area_name": "서울특별시 중구 을지로동",
            "people_count": 0,
            "latitude": "37.566494",
            "longitude": "126.99876"
        }
    },
    {
        "model": "accounts.livingarea",
        "pk": 26,
        "fields": {
            "area_name": "서울특별시 중구 신당동",
            "people_count": 0,
            "latitude": "37.561325",
            "longitude": "127.0137"
        }
    },
    {
        "model": "accounts.livingarea",
        "pk": 27,
        "fields": {
            "area_name": "서울특별시 중구 다산동",
            "people_count": 0,
            "latitude": "37.561325",
            "longitude": "127.0137"
        }
    },
    {
        "model": "accounts.livingarea",
        "pk": 28,
        "fields": {
            "area_name": "서울특별시 중구 약수동",
            "people_count": 0,
            "latitude": "37.561325",
            "longitude": "127.0137"
        }
    },
    {
        "model": "accounts.livingarea",
        "pk": 29,
        "fields": {
            "area_name": "서울특별시 중구 청구동",
            "people_count": 0,
            "latitude": "37.561325",
            "longitude": "127.0137"
        }
    },
    {
        "model": "accounts.livingarea",
        "pk": 30,
        "fields": {
            "area_name": "서울특별시 중구 신당제5동",
            "people_count": 0,
            "latitude": "37.561325",
            "longitude": "127.0137"
        }
    },
    {
        "model": "accounts.livingarea",
        "pk": 31,
        "fields": {
            "area_name": "서울특별시 중구 동화동",
            "people_count": 0,
            "latitude": "37.561325",
            "longitude": "127.0137"
        }
    },
    {
        "model": "accounts.livingarea",
        "pk": 32,
        "fields": {
            "area_name": "서울특별시 중구 황학동",
            "people_count": 0,
            "latitude": "37.5675",
            "longitude": "127.021416"
        }
    },
    {
        "model": "accounts.livingarea",
        "pk": 33,
        "fields": {
            "area_name": "서울특별시 중구 중림동",
            "people_count": 0,
            "latitude": "37.55917",
            "longitude": "126.96619"
        }
    },
    {
        "model": "accounts.livingarea",
        "pk": 34,
        "fields": {
            "area_name": "서울특별시 용산구 후암동",
            "people_count": 0,
            "latitude": "37.54868",
            "longitude": "126.97815"
        }
    },
    {
        "model": "accounts.livingarea",
        "pk": 35,
        "fields": {
            "area_name": "서울특별시 용산구 용산2가동",
            "people_count": 0,
            "latitude": "37.54192",
            "longitude": "126.98295"
        }
    },
    {
        "model": "accounts.livingarea",
        "pk": 36,
        "fields": {
            "area_name": "서울특별시 용산구 남영동",
            "people_count": 0,
            "latitude": "37.546776",
            "longitude": "126.97216"
        }
    },
    {
        "model": "accounts.livingarea",
        "pk": 37,
        "fields": {
            "area_name": "서울특별시 용산구 청파동",
            "people_count": 0,
            "latitude": "37.552967",
            "longitude": "126.967"
        }
    },
    {
        "model": "accounts.livingarea",
        "pk": 38,
        "fields": {
            "area_name": "서울특별시 용산구 원효로제1동",
            "people_count": 0,
            "latitude": "37.53961",
            "longitude": "126.967064"
        }
    },
    {
        "model": "accounts.livingarea",
        "pk": 39,
        "fields": {
            "area_name": "서울특별시 용산구 원효로제2동",
            "people_count": 0,
            "latitude": "37.535767",
            "longitude": "126.95495"
        }
    },
    {
        "model": "accounts.livingarea",
        "pk": 40,
        "fields": {
            "area_name": "서울특별시 용산구 효창동",
            "people_count": 0,
            "latitude": "37.542458",
            "longitude": "126.9619"
        }
    },
    {
        "model": "accounts.livingarea",
        "pk": 41,
        "fields": {
            "area_name": "서울특별시 용산구 용문동",
            "people_count": 0,
            "latitude": "37.53812",
            "longitude": "126.955124"
        }
    },
    {
        "model": "accounts.livingarea",
        "pk": 42,
        "fields": {
            "area_name": "서울특별시 용산구 한강로동",
            "people_count": 0,
            "latitude": "37.533978",
            "longitude": "126.97305"
        }
    },
    {
        "model": "accounts.livingarea",
        "pk": 43,
        "fields": {
            "area_name": "서울특별시 용산구 이촌제1동",
            "people_count": 0,
            "latitude": "37.514194",
            "longitude": "126.9721"
        }
    },
    {
        "model": "accounts.livingarea",
        "pk": 44,
        "fields": {
            "area_name": "서울특별시 용산구 이촌제2동",
            "people_count": 0,
            "latitude": "37.514194",
            "longitude": "126.9721"
        }
    },
    {
        "model": "accounts.livingarea",
        "pk": 45,
        "fields": {
            "area_name": "서울특별시 용산구 이태원제1동",
            "people_count": 0,
            "latitude": "37.540268",
            "longitude": "126.99152"
        }
    },
    {
        "model": "accounts.livingarea",
        "pk": 46,
        "fields": {
            "area_name": "서울특별시 용산구 이태원제2동",
            "people_count": 0,
            "latitude": "37.540268",
            "longitude": "126.99152"
        }
    },
    {
        "model": "accounts.livingarea",
        "pk": 47,
        "fields": {
            "area_name": "서울특별시 용산구 한남동",
            "people_count": 0,
            "latitude": "37.53463",
            "longitude": "127.00055"
        }
    },
    {
        "model": "accounts.livingarea",
        "pk": 48,
        "fields": {
            "area_name": "서울특별시 용산구 서빙고동",
            "people_count": 0,
            "latitude": "37.524414",
            "longitude": "126.99511"
        }
    },
    {
        "model": "accounts.livingarea",
        "pk": 49,
        "fields": {
            "area_name": "서울특별시 용산구 보광동",
            "people_count": 0,
            "latitude": "37.52628",
            "longitude": "127.000175"
        }
    },
    {
        "model": "accounts.livingarea",
        "pk": 50,
        "fields": {
            "area_name": "서울특별시 성동구 왕십리제2동",
            "people_count": 0,
            "latitude": "37.561913",
            "longitude": "127.0287"
        }
    },
    {
        "model": "accounts.livingarea",
        "pk": 51,
        "fields": {
            "area_name": "서울특별시 성동구 왕십리도선동",
            "people_count": 0,
            "latitude": "37.56843",
            "longitude": "127.02479"
        }
    },
    {
        "model": "accounts.livingarea",
        "pk": 52,
        "fields": {
            "area_name": "서울특별시 성동구 마장동",
            "people_count": 0,
            "latitude": "37.56638",
            "longitude": "127.04533"
        }
    },
    {
        "model": "accounts.livingarea",
        "pk": 53,
        "fields": {
            "area_name": "서울특별시 성동구 사근동",
            "people_count": 0,
            "latitude": "37.5615",
            "longitude": "127.04533"
        }
    },
    {
        "model": "accounts.livingarea",
        "pk": 54,
        "fields": {
            "area_name": "서울특별시 성동구 행당제1동",
            "people_count": 0,
            "latitude": "37.558308",
            "longitude": "127.03703"
        }
    },
    {
        "model": "accounts.livingarea",
        "pk": 55,
        "fields": {
            "area_name": "서울특별시 성동구 행당제2동",
            "people_count": 0,
            "latitude": "37.558308",
            "longitude": "127.03703"
        }
    },
    {
        "model": "accounts.livingarea",
        "pk": 56,
        "fields": {
            "area_name": "서울특별시 성동구 응봉동",
            "people_count": 0,
            "latitude": "37.55316",
            "longitude": "127.03342"
        }
    },
    {
        "model": "accounts.livingarea",
        "pk": 57,
        "fields": {
            "area_name": "서울특별시 성동구 금호1가동",
            "people_count": 0,
            "latitude": "37.554886",
            "longitude": "127.0228"
        }
    },
    {
        "model": "accounts.livingarea",
        "pk": 58,
        "fields": {
            "area_name": "서울특별시 성동구 금호2·3가동",
            "people_count": 0,
            "latitude": "37.552994",
            "longitude": "127.02041"
        }
    },
    {
        "model": "accounts.livingarea",
        "pk": 59,
        "fields": {
            "area_name": "서울특별시 성동구 금호4가동",
            "people_count": 0,
            "latitude": "37.54473",
            "longitude": "127.02616"
        }
    },
    {
        "model": "accounts.livingarea",
        "pk": 60,
        "fields": {
            "area_name": "서울특별시 성동구 옥수동",
            "people_count": 0,
            "latitude": "37.541656",
            "longitude": "127.018105"
        }
    },
    {
        "model": "accounts.livingarea",
        "pk": 61,
        "fields": {
            "area_name": "서울특별시 성동구 성수1가제1동",
            "people_count": 0,
            "latitude": "37.541725",
            "longitude": "127.04335"
        }
    },
    {
        "model": "accounts.livingarea",
        "pk": 62,
        "fields": {
            "area_name": "서울특별시 성동구 성수1가제2동",
            "people_count": 0,
            "latitude": "37.541725",
            "longitude": "127.04335"
        }
    },
    {
        "model": "accounts.livingarea",
        "pk": 63,
        "fields": {
            "area_name": "서울특별시 성동구 성수2가제1동",
            "people_count": 0,
            "latitude": "37.540962",
            "longitude": "127.05702"
        }
    },
    {
        "model": "accounts.livingarea",
        "pk": 64,
        "fields": {
            "area_name": "서울특별시 성동구 성수2가제3동",
            "people_count": 0,
            "latitude": "37.540962",
            "longitude": "127.05702"
        }
    },
    {
        "model": "accounts.livingarea",
        "pk": 65,
        "fields": {
            "area_name": "서울특별시 성동구 송정동",
            "people_count": 0,
            "latitude": "37.55453",
            "longitude": "127.06957"
        }
    },
    {
        "model": "accounts.livingarea",
        "pk": 66,
        "fields": {
            "area_name": "서울특별시 성동구 용답동",
            "people_count": 0,
            "latitude": "37.55453",
            "longitude": "127.06957"
        }
    },
    {
        "model": "accounts.livingarea",
        "pk": 67,
        "fields": {
            "area_name": "서울특별시 광진구 화양동",
            "people_count": 0,
            "latitude": "37.546474",
            "longitude": "127.071365"
        }
    },
    {
        "model": "accounts.livingarea",
        "pk": 68,
        "fields": {
            "area_name": "서울특별시 광진구 군자동",
            "people_count": 0,
            "latitude": "37.555145",
            "longitude": "127.075905"
        }
    },
    {
        "model": "accounts.livingarea",
        "pk": 69,
        "fields": {
            "area_name": "서울특별시 광진구 중곡제1동",
            "people_count": 0,
            "latitude": "37.56175",
            "longitude": "127.0904"
        }
    },
    {
        "model": "accounts.livingarea",
        "pk": 70,
        "fields": {
            "area_name": "서울특별시 광진구 중곡제2동",
            "people_count": 0,
            "latitude": "37.56175",
            "longitude": "127.0904"
        }
    },
    {
        "model": "accounts.livingarea",
        "pk": 71,
        "fields": {
            "area_name": "서울특별시 광진구 중곡제3동",
            "people_count": 0,
            "latitude": "37.56175",
            "longitude": "127.0904"
        }
    },
    {
        "model": "accounts.livingarea",
        "pk": 72,
        "fields": {
            "area_name": "서울특별시 광진구 중곡제4동",
            "people_count": 0,
            "latitude": "37.56175",
            "longitude": "127.0904"
        }
    },
    {
        "model": "accounts.livingarea",
        "pk": 73,
        "fields": {
            "area_name": "서울특별시 광진구 능동",
            "people_count": 0,
            "latitude": "37.55378",
            "longitude": "127.080536"
        }
    },
    {
        "model": "accounts.livingarea",
        "pk": 74,
        "fields": {
            "area_name": "서울특별시 광진구 광장동",
            "people_count": 0,
            "latitude": "37.546856",
            "longitude": "127.10303"
        }
    },
    {
        "model": "accounts.livingarea",
        "pk": 75,
        "fields": {
            "area_name": "서울특별시 광진구 자양제1동",
            "people_count": 0,
            "latitude": "37.53111",
            "longitude": "127.07302"
        }
    },
    {
        "model": "accounts.livingarea",
        "pk": 76,
        "fields": {
            "area_name": "서울특별시 광진구 자양제2동",
            "people_count": 0,
            "latitude": "37.53111",
            "longitude": "127.07302"
        }
    },
    {
        "model": "accounts.livingarea",
        "pk": 77,
        "fields": {
            "area_name": "서울특별시 광진구 자양제3동",
            "people_count": 0,
            "latitude": "37.53111",
            "longitude": "127.07302"
        }
    },
    {
        "model": "accounts.livingarea",
        "pk": 78,
        "fields": {
            "area_name": "서울특별시 광진구 자양제4동",
            "people_count": 0,
            "latitude": "37.53111",
            "longitude": "127.07302"
        }
    },
    {
        "model": "accounts.livingarea",
        "pk": 79,
        "fields": {
            "area_name": "서울특별시 광진구 구의제1동",
            "people_count": 0,
            "latitude": "37.550274",
            "longitude": "127.09313"
        }
    },
    {
        "model": "accounts.livingarea",
        "pk": 80,
        "fields": {
            "area_name": "서울특별시 광진구 구의제2동",
            "people_count": 0,
            "latitude": "37.550274",
            "longitude": "127.09313"
        }
    },
    {
        "model": "accounts.livingarea",
        "pk": 81,
        "fields": {
            "area_name": "서울특별시 광진구 구의제3동",
            "people_count": 0,
            "latitude": "37.550274",
            "longitude": "127.09313"
        }
    },
    {
        "model": "accounts.livingarea",
        "pk": 82,
        "fields": {
            "area_name": "서울특별시 동대문구 용신동",
            "people_count": 0,
            "latitude": "37.574963",
            "longitude": "127.025536"
        }
    },
    {
        "model": "accounts.livingarea",
        "pk": 83,
        "fields": {
            "area_name": "서울특별시 동대문구 제기동",
            "people_count": 0,
            "latitude": "37.583115",
            "longitude": "127.03782"
        }
    },
    {
        "model": "accounts.livingarea",
        "pk": 84,
        "fields": {
            "area_name": "서울특별시 동대문구 전농제1동",
            "people_count": 0,
            "latitude": "37.57933",
            "longitude": "127.05398"
        }
    },
    {
        "model": "accounts.livingarea",
        "pk": 85,
        "fields": {
            "area_name": "서울특별시 동대문구 전농제2동",
            "people_count": 0,
            "latitude": "37.57933",
            "longitude": "127.05398"
        }
    },
    {
        "model": "accounts.livingarea",
        "pk": 86,
        "fields": {
            "area_name": "서울특별시 동대문구 답십리제1동",
            "people_count": 0,
            "latitude": "37.569065",
            "longitude": "127.056656"
        }
    },
    {
        "model": "accounts.livingarea",
        "pk": 87,
        "fields": {
            "area_name": "서울특별시 동대문구 답십리제2동",
            "people_count": 0,
            "latitude": "37.569065",
            "longitude": "127.056656"
        }
    },
    {
        "model": "accounts.livingarea",
        "pk": 88,
        "fields": {
            "area_name": "서울특별시 동대문구 장안제1동",
            "people_count": 0,
            "latitude": "37.5697",
            "longitude": "127.07144"
        }
    },
    {
        "model": "accounts.livingarea",
        "pk": 89,
        "fields": {
            "area_name": "서울특별시 동대문구 장안제2동",
            "people_count": 0,
            "latitude": "37.5697",
            "longitude": "127.07144"
        }
    },
    {
        "model": "accounts.livingarea",
        "pk": 90,
        "fields": {
            "area_name": "서울특별시 동대문구 청량리동",
            "people_count": 0,
            "latitude": "37.58625",
            "longitude": "127.04729"
        }
    },
    {
        "model": "accounts.livingarea",
        "pk": 91,
        "fields": {
            "area_name": "서울특별시 동대문구 회기동",
            "people_count": 0,
            "latitude": "37.59079",
            "longitude": "127.055374"
        }
    },
    {
        "model": "accounts.livingarea",
        "pk": 92,
        "fields": {
            "area_name": "서울특별시 동대문구 휘경제1동",
            "people_count": 0,
            "latitude": "37.590855",
            "longitude": "127.06573"
        }
    },
    {
        "model": "accounts.livingarea",
        "pk": 93,
        "fields": {
            "area_name": "서울특별시 동대문구 휘경제2동",
            "people_count": 0,
            "latitude": "37.590855",
            "longitude": "127.06573"
        }
    },
    {
        "model": "accounts.livingarea",
        "pk": 94,
        "fields": {
            "area_name": "서울특별시 동대문구 이문제1동",
            "people_count": 0,
            "latitude": "37.600407",
            "longitude": "127.066376"
        }
    },
    {
        "model": "accounts.livingarea",
        "pk": 95,
        "fields": {
            "area_name": "서울특별시 동대문구 이문제2동",
            "people_count": 0,
            "latitude": "37.600407",
            "longitude": "127.066376"
        }
    },
    {
        "model": "accounts.livingarea",
        "pk": 96,
        "fields": {
            "area_name": "서울특별시 중랑구 면목제2동",
            "people_count": 0,
            "latitude": "37.58037",
            "longitude": "127.08766"
        }
    },
    {
        "model": "accounts.livingarea",
        "pk": 97,
        "fields": {
            "area_name": "서울특별시 중랑구 면목제4동",
            "people_count": 0,
            "latitude": "37.58037",
            "longitude": "127.08766"
        }
    },
    {
        "model": "accounts.livingarea",
        "pk": 98,
        "fields": {
            "area_name": "서울특별시 중랑구 면목제5동",
            "people_count": 0,
            "latitude": "37.58037",
            "longitude": "127.08766"
        }
    },
    {
        "model": "accounts.livingarea",
        "pk": 99,
        "fields": {
            "area_name": "서울특별시 중랑구 면목본동",
            "people_count": 0,
            "latitude": "37.58037",
            "longitude": "127.08766"
        }
    },
    {
        "model": "accounts.livingarea",
        "pk": 100,
        "fields": {
            "area_name": "서울특별시 중랑구 면목제7동",
            "people_count": 0,
            "latitude": "37.58037",
            "longitude": "127.08766"
        }
    },
    {
        "model": "accounts.livingarea",
        "pk": 101,
        "fields": {
            "area_name": "서울특별시 중랑구 면목제3·8동",
            "people_count": 0,
            "latitude": "37.58037",
            "longitude": "127.08766"
        }
    },
    {
        "model": "accounts.livingarea",
        "pk": 102,
        "fields": {
            "area_name": "서울특별시 중랑구 상봉제1동",
            "people_count": 0,
            "latitude": "37.596767",
            "longitude": "127.08875"
        }
    },
    {
        "model": "accounts.livingarea",
        "pk": 103,
        "fields": {
            "area_name": "서울특별시 중랑구 상봉제2동",
            "people_count": 0,
            "latitude": "37.596767",
            "longitude": "127.08875"
        }
    },
    {
        "model": "accounts.livingarea",
        "pk": 104,
        "fields": {
            "area_name": "서울특별시 중랑구 중화제1동",
            "people_count": 0,
            "latitude": "37.59946",
            "longitude": "127.077324"
        }
    },
    {
        "model": "accounts.livingarea",
        "pk": 105,
        "fields": {
            "area_name": "서울특별시 중랑구 중화제2동",
            "people_count": 0,
            "latitude": "37.59946",
            "longitude": "127.077324"
        }
    },
    {
        "model": "accounts.livingarea",
        "pk": 106,
        "fields": {
            "area_name": "서울특별시 중랑구 묵제1동",
            "people_count": 0,
            "latitude": "37.61238",
            "longitude": "127.079185"
        }
    },
    {
        "model": "accounts.livingarea",
        "pk": 107,
        "fields": {
            "area_name": "서울특별시 중랑구 묵제2동",
            "people_count": 0,
            "latitude": "37.61238",
            "longitude": "127.079185"
        }
    },
    {
        "model": "accounts.livingarea",
        "pk": 108,
        "fields": {
            "area_name": "서울특별시 중랑구 망우본동",
            "people_count": 0,
            "latitude": "37.595512",
            "longitude": "127.103966"
        }
    },
    {
        "model": "accounts.livingarea",
        "pk": 109,
        "fields": {
            "area_name": "서울특별시 중랑구 망우제3동",
            "people_count": 0,
            "latitude": "37.595512",
            "longitude": "127.103966"
        }
    },
    {
        "model": "accounts.livingarea",
        "pk": 110,
        "fields": {
            "area_name": "서울특별시 중랑구 신내1동",
            "people_count": 0,
            "latitude": "37.605873",
            "longitude": "127.099365"
        }
    },
    {
        "model": "accounts.livingarea",
        "pk": 111,
        "fields": {
            "area_name": "서울특별시 중랑구 신내2동",
            "people_count": 0,
            "latitude": "37.605873",
            "longitude": "127.099365"
        }
    },
    {
        "model": "accounts.livingarea",
        "pk": 112,
        "fields": {
            "area_name": "서울특별시 성북구 성북동",
            "people_count": 0,
            "latitude": "37.591045",
            "longitude": "127.00327"
        }
    },
    {
        "model": "accounts.livingarea",
        "pk": 113,
        "fields": {
            "area_name": "서울특별시 성북구 삼선동",
            "people_count": 0,
            "latitude": "37.588707",
            "longitude": "127.00824"
        }
    },
    {
        "model": "accounts.livingarea",
        "pk": 114,
        "fields": {
            "area_name": "서울특별시 성북구 동선동",
            "people_count": 0,
            "latitude": "37.59628",
            "longitude": "127.00991"
        }
    },
    {
        "model": "accounts.livingarea",
        "pk": 115,
        "fields": {
            "area_name": "서울특별시 성북구 돈암제1동",
            "people_count": 0,
            "latitude": "37.59628",
            "longitude": "127.00991"
        }
    },
    {
        "model": "accounts.livingarea",
        "pk": 116,
        "fields": {
            "area_name": "서울특별시 성북구 돈암제2동",
            "people_count": 0,
            "latitude": "37.59628",
            "longitude": "127.00991"
        }
    },
    {
        "model": "accounts.livingarea",
        "pk": 117,
        "fields": {
            "area_name": "서울특별시 성북구 안암동",
            "people_count": 0,
            "latitude": "37.58839",
            "longitude": "127.021355"
        }
    },
    {
        "model": "accounts.livingarea",
        "pk": 118,
        "fields": {
            "area_name": "서울특별시 성북구 보문동",
            "people_count": 0,
            "latitude": "37.582897",
            "longitude": "127.02135"
        }
    },
    {
        "model": "accounts.livingarea",
        "pk": 119,
        "fields": {
            "area_name": "서울특별시 성북구 정릉제1동",
            "people_count": 0,
            "latitude": "37.61858",
            "longitude": "126.99548"
        }
    },
    {
        "model": "accounts.livingarea",
        "pk": 120,
        "fields": {
            "area_name": "서울특별시 성북구 정릉제2동",
            "people_count": 0,
            "latitude": "37.59628",
            "longitude": "127.00991"
        }
    },
    {
        "model": "accounts.livingarea",
        "pk": 121,
        "fields": {
            "area_name": "서울특별시 성북구 정릉제3동",
            "people_count": 0,
            "latitude": "37.61858",
            "longitude": "126.99548"
        }
    },
    {
        "model": "accounts.livingarea",
        "pk": 122,
        "fields": {
            "area_name": "서울특별시 성북구 정릉제4동",
            "people_count": 0,
            "latitude": "37.61858",
            "longitude": "126.99548"
        }
    },
    {
        "model": "accounts.livingarea",
        "pk": 123,
        "fields": {
            "area_name": "서울특별시 성북구 길음제1동",
            "people_count": 0,
            "latitude": "37.607666",
            "longitude": "127.023346"
        }
    },
    {
        "model": "accounts.livingarea",
        "pk": 124,
        "fields": {
            "area_name": "서울특별시 성북구 길음제2동",
            "people_count": 0,
            "latitude": "37.607666",
            "longitude": "127.023346"
        }
    },
    {
        "model": "accounts.livingarea",
        "pk": 125,
        "fields": {
            "area_name": "서울특별시 성북구 종암동",
            "people_count": 0,
            "latitude": "37.59906",
            "longitude": "127.03521"
        }
    },
    {
        "model": "accounts.livingarea",
        "pk": 126,
        "fields": {
            "area_name": "서울특별시 성북구 월곡제1동",
            "people_count": 0,
            "latitude": "37.607502",
            "longitude": "127.03781"
        }
    },
    {
        "model": "accounts.livingarea",
        "pk": 127,
        "fields": {
            "area_name": "서울특별시 성북구 월곡제2동",
            "people_count": 0,
            "latitude": "37.607502",
            "longitude": "127.03781"
        }
    },
    {
        "model": "accounts.livingarea",
        "pk": 128,
        "fields": {
            "area_name": "서울특별시 성북구 장위제1동",
            "people_count": 0,
            "latitude": "37.617058",
            "longitude": "127.04957"
        }
    },
    {
        "model": "accounts.livingarea",
        "pk": 129,
        "fields": {
            "area_name": "서울특별시 성북구 장위제2동",
            "people_count": 0,
            "latitude": "37.617058",
            "longitude": "127.04957"
        }
    },
    {
        "model": "accounts.livingarea",
        "pk": 130,
        "fields": {
            "area_name": "서울특별시 성북구 장위제3동",
            "people_count": 0,
            "latitude": "37.617058",
            "longitude": "127.04957"
        }
    },
    {
        "model": "accounts.livingarea",
        "pk": 131,
        "fields": {
            "area_name": "서울특별시 성북구 석관동",
            "people_count": 0,
            "latitude": "37.612988",
            "longitude": "127.0614"
        }
    },
    {
        "model": "accounts.livingarea",
        "pk": 132,
        "fields": {
            "area_name": "서울특별시 강북구 삼양동",
            "people_count": 0,
            "latitude": "37.627083",
            "longitude": "127.02706"
        }
    },
    {
        "model": "accounts.livingarea",
        "pk": 133,
        "fields": {
            "area_name": "서울특별시 강북구 미아동",
            "people_count": 0,
            "latitude": "37.627083",
            "longitude": "127.02706"
        }
    },
    {
        "model": "accounts.livingarea",
        "pk": 134,
        "fields": {
            "area_name": "서울특별시 강북구 송중동",
            "people_count": 0,
            "latitude": "37.627083",
            "longitude": "127.02706"
        }
    },
    {
        "model": "accounts.livingarea",
        "pk": 135,
        "fields": {
            "area_name": "서울특별시 강북구 송천동",
            "people_count": 0,
            "latitude": "37.627083",
            "longitude": "127.02706"
        }
    },
    {
        "model": "accounts.livingarea",
        "pk": 136,
        "fields": {
            "area_name": "서울특별시 강북구 삼각산동",
            "people_count": 0,
            "latitude": "37.627083",
            "longitude": "127.02706"
        }
    },
    {
        "model": "accounts.livingarea",
        "pk": 137,
        "fields": {
            "area_name": "서울특별시 강북구 번1동",
            "people_count": 0,
            "latitude": "37.624107",
            "longitude": "127.041336"
        }
    },
    {
        "model": "accounts.livingarea",
        "pk": 138,
        "fields": {
            "area_name": "서울특별시 강북구 번2동",
            "people_count": 0,
            "latitude": "37.624107",
            "longitude": "127.041336"
        }
    },
    {
        "model": "accounts.livingarea",
        "pk": 139,
        "fields": {
            "area_name": "서울특별시 강북구 번3동",
            "people_count": 0,
            "latitude": "37.624107",
            "longitude": "127.041336"
        }
    },
    {
        "model": "accounts.livingarea",
        "pk": 140,
        "fields": {
            "area_name": "서울특별시 강북구 수유1동",
            "people_count": 0,
            "latitude": "37.642464",
            "longitude": "127.022095"
        }
    },
    {
        "model": "accounts.livingarea",
        "pk": 141,
        "fields": {
            "area_name": "서울특별시 강북구 수유2동",
            "people_count": 0,
            "latitude": "37.642464",
            "longitude": "127.022095"
        }
    },
    {
        "model": "accounts.livingarea",
        "pk": 142,
        "fields": {
            "area_name": "서울특별시 강북구 수유3동",
            "people_count": 0,
            "latitude": "37.642464",
            "longitude": "127.022095"
        }
    },
    {
        "model": "accounts.livingarea",
        "pk": 143,
        "fields": {
            "area_name": "서울특별시 강북구 우이동",
            "people_count": 0,
            "latitude": "37.642464",
            "longitude": "127.022095"
        }
    },
    {
        "model": "accounts.livingarea",
        "pk": 144,
        "fields": {
            "area_name": "서울특별시 강북구 인수동",
            "people_count": 0,
            "latitude": "37.642464",
            "longitude": "127.022095"
        }
    },
    {
        "model": "accounts.livingarea",
        "pk": 145,
        "fields": {
            "area_name": "서울특별시 도봉구 창제1동",
            "people_count": 0,
            "latitude": "37.65226",
            "longitude": "127.04543"
        }
    },
    {
        "model": "accounts.livingarea",
        "pk": 146,
        "fields": {
            "area_name": "서울특별시 도봉구 창제2동",
            "people_count": 0,
            "latitude": "37.65226",
            "longitude": "127.04543"
        }
    },
    {
        "model": "accounts.livingarea",
        "pk": 147,
        "fields": {
            "area_name": "서울특별시 도봉구 창제3동",
            "people_count": 0,
            "latitude": "37.65226",
            "longitude": "127.04543"
        }
    },
    {
        "model": "accounts.livingarea",
        "pk": 148,
        "fields": {
            "area_name": "서울특별시 도봉구 창제4동",
            "people_count": 0,
            "latitude": "37.65226",
            "longitude": "127.04543"
        }
    },
    {
        "model": "accounts.livingarea",
        "pk": 149,
        "fields": {
            "area_name": "서울특별시 도봉구 창제5동",
            "people_count": 0,
            "latitude": "37.65226",
            "longitude": "127.04543"
        }
    },
    {
        "model": "accounts.livingarea",
        "pk": 150,
        "fields": {
            "area_name": "서울특별시 도봉구 도봉제1동",
            "people_count": 0,
            "latitude": "37.687397",
            "longitude": "127.02149"
        }
    },
    {
        "model": "accounts.livingarea",
        "pk": 151,
        "fields": {
            "area_name": "서울특별시 도봉구 도봉제2동",
            "people_count": 0,
            "latitude": "37.687397",
            "longitude": "127.02149"
        }
    },
    {
        "model": "accounts.livingarea",
        "pk": 152,
        "fields": {
            "area_name": "서울특별시 도봉구 쌍문제1동",
            "people_count": 0,
            "latitude": "37.651318",
            "longitude": "127.02919"
        }
    },
    {
        "model": "accounts.livingarea",
        "pk": 153,
        "fields": {
            "area_name": "서울특별시 도봉구 쌍문제2동",
            "people_count": 0,
            "latitude": "37.651318",
            "longitude": "127.02919"
        }
    },
    {
        "model": "accounts.livingarea",
        "pk": 154,
        "fields": {
            "area_name": "서울특별시 도봉구 쌍문제3동",
            "people_count": 0,
            "latitude": "37.651318",
            "longitude": "127.02919"
        }
    },
    {
        "model": "accounts.livingarea",
        "pk": 155,
        "fields": {
            "area_name": "서울특별시 도봉구 쌍문제4동",
            "people_count": 0,
            "latitude": "37.651318",
            "longitude": "127.02919"
        }
    },
    {
        "model": "accounts.livingarea",
        "pk": 156,
        "fields": {
            "area_name": "서울특별시 도봉구 방학제1동",
            "people_count": 0,
            "latitude": "37.665897",
            "longitude": "127.02688"
        }
    },
    {
        "model": "accounts.livingarea",
        "pk": 157,
        "fields": {
            "area_name": "서울특별시 도봉구 방학제2동",
            "people_count": 0,
            "latitude": "37.665897",
            "longitude": "127.02688"
        }
    },
    {
        "model": "accounts.livingarea",
        "pk": 158,
        "fields": {
            "area_name": "서울특별시 도봉구 방학제3동",
            "people_count": 0,
            "latitude": "37.665897",
            "longitude": "127.02688"
        }
    },
    {
        "model": "accounts.livingarea",
        "pk": 159,
        "fields": {
            "area_name": "서울특별시 노원구 월계1동",
            "people_count": 0,
            "latitude": "37.61992",
            "longitude": "127.06299"
        }
    },
    {
        "model": "accounts.livingarea",
        "pk": 160,
        "fields": {
            "area_name": "서울특별시 노원구 월계2동",
            "people_count": 0,
            "latitude": "37.61992",
            "longitude": "127.06299"
        }
    },
    {
        "model": "accounts.livingarea",
        "pk": 161,
        "fields": {
            "area_name": "서울특별시 노원구 월계3동",
            "people_count": 0,
            "latitude": "37.61992",
            "longitude": "127.06299"
        }
    },
    {
        "model": "accounts.livingarea",
        "pk": 162,
        "fields": {
            "area_name": "서울특별시 노원구 공릉1동",
            "people_count": 0,
            "latitude": "37.624844",
            "longitude": "127.07382"
        }
    },
    {
        "model": "accounts.livingarea",
        "pk": 163,
        "fields": {
            "area_name": "서울특별시 노원구 공릉2동",
            "people_count": 0,
            "latitude": "37.624844",
            "longitude": "127.07382"
        }
    },
    {
        "model": "accounts.livingarea",
        "pk": 164,
        "fields": {
            "area_name": "서울특별시 노원구 하계1동",
            "people_count": 0,
            "latitude": "37.640488",
            "longitude": "127.072685"
        }
    },
    {
        "model": "accounts.livingarea",
        "pk": 165,
        "fields": {
            "area_name": "서울특별시 노원구 하계2동",
            "people_count": 0,
            "latitude": "37.640488",
            "longitude": "127.072685"
        }
    },
    {
        "model": "accounts.livingarea",
        "pk": 166,
        "fields": {
            "area_name": "서울특별시 노원구 중계본동",
            "people_count": 0,
            "latitude": "37.652554",
            "longitude": "127.07749"
        }
    },
    {
        "model": "accounts.livingarea",
        "pk": 167,
        "fields": {
            "area_name": "서울특별시 노원구 중계1동",
            "people_count": 0,
            "latitude": "37.652554",
            "longitude": "127.07749"
        }
    },
    {
        "model": "accounts.livingarea",
        "pk": 168,
        "fields": {
            "area_name": "서울특별시 노원구 중계4동",
            "people_count": 0,
            "latitude": "37.652554",
            "longitude": "127.07749"
        }
    },
    {
        "model": "accounts.livingarea",
        "pk": 169,
        "fields": {
            "area_name": "서울특별시 노원구 중계2·3동",
            "people_count": 0,
            "latitude": "37.652554",
            "longitude": "127.07749"
        }
    },
    {
        "model": "accounts.livingarea",
        "pk": 170,
        "fields": {
            "area_name": "서울특별시 노원구 상계1동",
            "people_count": 0,
            "latitude": "37.66125",
            "longitude": "127.06025"
        }
    },
    {
        "model": "accounts.livingarea",
        "pk": 171,
        "fields": {
            "area_name": "서울특별시 노원구 상계2동",
            "people_count": 0,
            "latitude": "37.66125",
            "longitude": "127.06025"
        }
    },
    {
        "model": "accounts.livingarea",
        "pk": 172,
        "fields": {
            "area_name": "서울특별시 노원구 상계3·4동",
            "people_count": 0,
            "latitude": "37.66125",
            "longitude": "127.06025"
        }
    },
    {
        "model": "accounts.livingarea",
        "pk": 173,
        "fields": {
            "area_name": "서울특별시 노원구 상계5동",
            "people_count": 0,
            "latitude": "37.66125",
            "longitude": "127.06025"
        }
    },
    {
        "model": "accounts.livingarea",
        "pk": 174,
        "fields": {
            "area_name": "서울특별시 노원구 상계6·7동",
            "people_count": 0,
            "latitude": "37.66125",
            "longitude": "127.06025"
        }
    },
    {
        "model": "accounts.livingarea",
        "pk": 175,
        "fields": {
            "area_name": "서울특별시 노원구 상계8동",
            "people_count": 0,
            "latitude": "37.66125",
            "longitude": "127.06025"
        }
    },
    {
        "model": "accounts.livingarea",
        "pk": 176,
        "fields": {
            "area_name": "서울특별시 노원구 상계9동",
            "people_count": 0,
            "latitude": "37.66125",
            "longitude": "127.06025"
        }
    },
    {
        "model": "accounts.livingarea",
        "pk": 177,
        "fields": {
            "area_name": "서울특별시 노원구 상계10동",
            "people_count": 0,
            "latitude": "37.66125",
            "longitude": "127.06025"
        }
    },
    {
        "model": "accounts.livingarea",
        "pk": 178,
        "fields": {
            "area_name": "서울특별시 은평구 녹번동",
            "people_count": 0,
            "latitude": "37.602215",
            "longitude": "126.92992"
        }
    },
    {
        "model": "accounts.livingarea",
        "pk": 179,
        "fields": {
            "area_name": "서울특별시 은평구 불광제1동",
            "people_count": 0,
            "latitude": "37.617653",
            "longitude": "126.93706"
        }
    },
    {
        "model": "accounts.livingarea",
        "pk": 180,
        "fields": {
            "area_name": "서울특별시 은평구 불광제2동",
            "people_count": 0,
            "latitude": "37.617653",
            "longitude": "126.93706"
        }
    },
    {
        "model": "accounts.livingarea",
        "pk": 181,
        "fields": {
            "area_name": "서울특별시 은평구 갈현제1동",
            "people_count": 0,
            "latitude": "37.619865",
            "longitude": "126.91437"
        }
    },
    {
        "model": "accounts.livingarea",
        "pk": 182,
        "fields": {
            "area_name": "서울특별시 은평구 갈현제2동",
            "people_count": 0,
            "latitude": "37.619865",
            "longitude": "126.91437"
        }
    },
    {
        "model": "accounts.livingarea",
        "pk": 183,
        "fields": {
            "area_name": "서울특별시 은평구 구산동",
            "people_count": 0,
            "latitude": "37.611755",
            "longitude": "126.91038"
        }
    },
    {
        "model": "accounts.livingarea",
        "pk": 184,
        "fields": {
            "area_name": "서울특별시 은평구 대조동",
            "people_count": 0,
            "latitude": "37.61419",
            "longitude": "126.92082"
        }
    },
    {
        "model": "accounts.livingarea",
        "pk": 185,
        "fields": {
            "area_name": "서울특별시 은평구 응암제1동",
            "people_count": 0,
            "latitude": "37.59633",
            "longitude": "126.92411"
        }
    },
    {
        "model": "accounts.livingarea",
        "pk": 186,
        "fields": {
            "area_name": "서울특별시 은평구 응암제2동",
            "people_count": 0,
            "latitude": "37.59633",
            "longitude": "126.92411"
        }
    },
    {
        "model": "accounts.livingarea",
        "pk": 187,
        "fields": {
            "area_name": "서울특별시 은평구 응암제3동",
            "people_count": 0,
            "latitude": "37.59633",
            "longitude": "126.92411"
        }
    },
    {
        "model": "accounts.livingarea",
        "pk": 188,
        "fields": {
            "area_name": "서울특별시 은평구 역촌동",
            "people_count": 0,
            "latitude": "37.604397",
            "longitude": "126.91512"
        }
    },
    {
        "model": "accounts.livingarea",
        "pk": 189,
        "fields": {
            "area_name": "서울특별시 은평구 신사제1동",
            "people_count": 0,
            "latitude": "37.59492",
            "longitude": "126.90848"
        }
    },
    {
        "model": "accounts.livingarea",
        "pk": 190,
        "fields": {
            "area_name": "서울특별시 은평구 신사제2동",
            "people_count": 0,
            "latitude": "37.59492",
            "longitude": "126.90848"
        }
    },
    {
        "model": "accounts.livingarea",
        "pk": 191,
        "fields": {
            "area_name": "서울특별시 은평구 증산동",
            "people_count": 0,
            "latitude": "37.584305",
            "longitude": "126.90704"
        }
    },
    {
        "model": "accounts.livingarea",
        "pk": 192,
        "fields": {
            "area_name": "서울특별시 은평구 수색동",
            "people_count": 0,
            "latitude": "37.58352",
            "longitude": "126.89367"
        }
    },
    {
        "model": "accounts.livingarea",
        "pk": 193,
        "fields": {
            "area_name": "서울특별시 은평구 진관동",
            "people_count": 0,
            "latitude": "37.634968",
            "longitude": "126.92107"
        }
    },
    {
        "model": "accounts.livingarea",
        "pk": 194,
        "fields": {
            "area_name": "서울특별시 서대문구 천연동",
            "people_count": 0,
            "latitude": "37.566784",
            "longitude": "126.96196"
        }
    },
    {
        "model": "accounts.livingarea",
        "pk": 195,
        "fields": {
            "area_name": "서울특별시 서대문구 북아현동",
            "people_count": 0,
            "latitude": "37.559566",
            "longitude": "126.9569"
        }
    },
    {
        "model": "accounts.livingarea",
        "pk": 196,
        "fields": {
            "area_name": "서울특별시 서대문구 충현동",
            "people_count": 0,
            "latitude": "37.56485",
            "longitude": "126.96412"
        }
    },
    {
        "model": "accounts.livingarea",
        "pk": 197,
        "fields": {
            "area_name": "서울특별시 서대문구 신촌동",
            "people_count": 0,
            "latitude": "37.56077",
            "longitude": "126.94721"
        }
    },
    {
        "model": "accounts.livingarea",
        "pk": 198,
        "fields": {
            "area_name": "서울특별시 서대문구 연희동",
            "people_count": 0,
            "latitude": "37.57391",
            "longitude": "126.935234"
        }
    },
    {
        "model": "accounts.livingarea",
        "pk": 199,
        "fields": {
            "area_name": "서울특별시 서대문구 홍제제1동",
            "people_count": 0,
            "latitude": "37.585846",
            "longitude": "126.94872"
        }
    },
    {
        "model": "accounts.livingarea",
        "pk": 200,
        "fields": {
            "area_name": "서울특별시 서대문구 홍제제3동",
            "people_count": 0,
            "latitude": "37.585846",
            "longitude": "126.94872"
        }
    },
    {
        "model": "accounts.livingarea",
        "pk": 201,
        "fields": {
            "area_name": "서울특별시 서대문구 홍제제2동",
            "people_count": 0,
            "latitude": "37.585846",
            "longitude": "126.94872"
        }
    },
    {
        "model": "accounts.livingarea",
        "pk": 202,
        "fields": {
            "area_name": "서울특별시 서대문구 홍은제1동",
            "people_count": 0,
            "latitude": "37.59089",
            "longitude": "126.93322"
        }
    },
    {
        "model": "accounts.livingarea",
        "pk": 203,
        "fields": {
            "area_name": "서울특별시 서대문구 홍은제2동",
            "people_count": 0,
            "latitude": "37.59089",
            "longitude": "126.93322"
        }
    },
    {
        "model": "accounts.livingarea",
        "pk": 204,
        "fields": {
            "area_name": "서울특별시 서대문구 남가좌제1동",
            "people_count": 0,
            "latitude": "37.575546",
            "longitude": "126.91955"
        }
    },
    {
        "model": "accounts.livingarea",
        "pk": 205,
        "fields": {
            "area_name": "서울특별시 서대문구 남가좌제2동",
            "people_count": 0,
            "latitude": "37.575546",
            "longitude": "126.91955"
        }
    },
    {
        "model": "accounts.livingarea",
        "pk": 206,
        "fields": {
            "area_name": "서울특별시 서대문구 북가좌제1동",
            "people_count": 0,
            "latitude": "37.578083",
            "longitude": "126.9104"
        }
    },
    {
        "model": "accounts.livingarea",
        "pk": 207,
        "fields": {
            "area_name": "서울특별시 서대문구 북가좌제2동",
            "people_count": 0,
            "latitude": "37.578083",
            "longitude": "126.9104"
        }
    },
    {
        "model": "accounts.livingarea",
        "pk": 208,
        "fields": {
            "area_name": "서울특별시 마포구 아현동",
            "people_count": 0,
            "latitude": "37.55448",
            "longitude": "126.9559"
        }
    },
    {
        "model": "accounts.livingarea",
        "pk": 209,
        "fields": {
            "area_name": "서울특별시 마포구 공덕동",
            "people_count": 0,
            "latitude": "37.55448",
            "longitude": "126.9559"
        }
    },
    {
        "model": "accounts.livingarea",
        "pk": 210,
        "fields": {
            "area_name": "서울특별시 마포구 도화동",
            "people_count": 0,
            "latitude": "37.54155",
            "longitude": "126.949875"
        }
    },
    {
        "model": "accounts.livingarea",
        "pk": 211,
        "fields": {
            "area_name": "서울특별시 마포구 용강동",
            "people_count": 0,
            "latitude": "37.54155",
            "longitude": "126.949875"
        }
    },
    {
        "model": "accounts.livingarea",
        "pk": 212,
        "fields": {
            "area_name": "서울특별시 마포구 대흥동",
            "people_count": 0,
            "latitude": "37.549946",
            "longitude": "126.94342"
        }
    },
    {
        "model": "accounts.livingarea",
        "pk": 213,
        "fields": {
            "area_name": "서울특별시 마포구 염리동",
            "people_count": 0,
            "latitude": "37.550175",
            "longitude": "126.96004"
        }
    },
    {
        "model": "accounts.livingarea",
        "pk": 214,
        "fields": {
            "area_name": "서울특별시 마포구 신수동",
            "people_count": 0,
            "latitude": "37.549946",
            "longitude": "126.94342"
        }
    },
    {
        "model": "accounts.livingarea",
        "pk": 215,
        "fields": {
            "area_name": "서울특별시 마포구 서강동",
            "people_count": 0,
            "latitude": "37.549274",
            "longitude": "126.92977"
        }
    },
    {
        "model": "accounts.livingarea",
        "pk": 216,
        "fields": {
            "area_name": "서울특별시 마포구 서교동",
            "people_count": 0,
            "latitude": "37.55435",
            "longitude": "126.93791"
        }
    },
    {
        "model": "accounts.livingarea",
        "pk": 217,
        "fields": {
            "area_name": "서울특별시 마포구 합정동",
            "people_count": 0,
            "latitude": "37.551662",
            "longitude": "126.91176"
        }
    },
    {
        "model": "accounts.livingarea",
        "pk": 218,
        "fields": {
            "area_name": "서울특별시 마포구 망원제1동",
            "people_count": 0,
            "latitude": "37.556786",
            "longitude": "126.901344"
        }
    },
    {
        "model": "accounts.livingarea",
        "pk": 219,
        "fields": {
            "area_name": "서울특별시 마포구 망원제2동",
            "people_count": 0,
            "latitude": "37.556786",
            "longitude": "126.901344"
        }
    },
    {
        "model": "accounts.livingarea",
        "pk": 220,
        "fields": {
            "area_name": "서울특별시 마포구 연남동",
            "people_count": 0,
            "latitude": "37.564476",
            "longitude": "126.92202"
        }
    },
    {
        "model": "accounts.livingarea",
        "pk": 221,
        "fields": {
            "area_name": "서울특별시 마포구 성산제1동",
            "people_count": 0,
            "latitude": "37.56288",
            "longitude": "126.90929"
        }
    },
    {
        "model": "accounts.livingarea",
        "pk": 222,
        "fields": {
            "area_name": "서울특별시 마포구 성산제2동",
            "people_count": 0,
            "latitude": "37.56288",
            "longitude": "126.90929"
        }
    },
    {
        "model": "accounts.livingarea",
        "pk": 223,
        "fields": {
            "area_name": "서울특별시 마포구 상암동",
            "people_count": 0,
            "latitude": "37.57832",
            "longitude": "126.89469"
        }
    },
    {
        "model": "accounts.livingarea",
        "pk": 224,
        "fields": {
            "area_name": "서울특별시 양천구 목1동",
            "people_count": 0,
            "latitude": "37.530437",
            "longitude": "126.87099"
        }
    },
    {
        "model": "accounts.livingarea",
        "pk": 225,
        "fields": {
            "area_name": "서울특별시 양천구 목2동",
            "people_count": 0,
            "latitude": "37.530437",
            "longitude": "126.87099"
        }
    },
    {
        "model": "accounts.livingarea",
        "pk": 226,
        "fields": {
            "area_name": "서울특별시 양천구 목3동",
            "people_count": 0,
            "latitude": "37.530437",
            "longitude": "126.87099"
        }
    },
    {
        "model": "accounts.livingarea",
        "pk": 227,
        "fields": {
            "area_name": "서울특별시 양천구 목4동",
            "people_count": 0,
            "latitude": "37.530437",
            "longitude": "126.87099"
        }
    },
    {
        "model": "accounts.livingarea",
        "pk": 228,
        "fields": {
            "area_name": "서울특별시 양천구 목5동",
            "people_count": 0,
            "latitude": "37.530437",
            "longitude": "126.87099"
        }
    },
    {
        "model": "accounts.livingarea",
        "pk": 229,
        "fields": {
            "area_name": "서울특별시 양천구 신월1동",
            "people_count": 0,
            "latitude": "37.532814",
            "longitude": "126.831535"
        }
    },
    {
        "model": "accounts.livingarea",
        "pk": 230,
        "fields": {
            "area_name": "서울특별시 양천구 신월2동",
            "people_count": 0,
            "latitude": "37.532814",
            "longitude": "126.831535"
        }
    },
    {
        "model": "accounts.livingarea",
        "pk": 231,
        "fields": {
            "area_name": "서울특별시 양천구 신월3동",
            "people_count": 0,
            "latitude": "37.532814",
            "longitude": "126.831535"
        }
    },
    {
        "model": "accounts.livingarea",
        "pk": 232,
        "fields": {
            "area_name": "서울특별시 양천구 신월4동",
            "people_count": 0,
            "latitude": "37.532814",
            "longitude": "126.831535"
        }
    },
    {
        "model": "accounts.livingarea",
        "pk": 233,
        "fields": {
            "area_name": "서울특별시 양천구 신월5동",
            "people_count": 0,
            "latitude": "37.532814",
            "longitude": "126.831535"
        }
    },
    {
        "model": "accounts.livingarea",
        "pk": 234,
        "fields": {
            "area_name": "서울특별시 양천구 신월6동",
            "people_count": 0,
            "latitude": "37.532814",
            "longitude": "126.831535"
        }
    },
    {
        "model": "accounts.livingarea",
        "pk": 235,
        "fields": {
            "area_name": "서울특별시 양천구 신월7동",
            "people_count": 0,
            "latitude": "37.532814",
            "longitude": "126.831535"
        }
    },
    {
        "model": "accounts.livingarea",
        "pk": 236,
        "fields": {
            "area_name": "서울특별시 양천구 신정1동",
            "people_count": 0,
            "latitude": "37.51855",
            "longitude": "126.854355"
        }
    },
    {
        "model": "accounts.livingarea",
        "pk": 237,
        "fields": {
            "area_name": "서울특별시 양천구 신정2동",
            "people_count": 0,
            "latitude": "37.51855",
            "longitude": "126.854355"
        }
    },
    {
        "model": "accounts.livingarea",
        "pk": 238,
        "fields": {
            "area_name": "서울특별시 양천구 신정3동",
            "people_count": 0,
            "latitude": "37.51855",
            "longitude": "126.854355"
        }
    },
    {
        "model": "accounts.livingarea",
        "pk": 239,
        "fields": {
            "area_name": "서울특별시 양천구 신정4동",
            "people_count": 0,
            "latitude": "37.51855",
            "longitude": "126.854355"
        }
    },
    {
        "model": "accounts.livingarea",
        "pk": 240,
        "fields": {
            "area_name": "서울특별시 양천구 신정6동",
            "people_count": 0,
            "latitude": "37.51855",
            "longitude": "126.854355"
        }
    },
    {
        "model": "accounts.livingarea",
        "pk": 241,
        "fields": {
            "area_name": "서울특별시 양천구 신정7동",
            "people_count": 0,
            "latitude": "37.51855",
            "longitude": "126.854355"
        }
    },
    {
        "model": "accounts.livingarea",
        "pk": 242,
        "fields": {
            "area_name": "서울특별시 강서구 염창동",
            "people_count": 0,
            "latitude": "37.553738",
            "longitude": "126.87099"
        }
    },
    {
        "model": "accounts.livingarea",
        "pk": 243,
        "fields": {
            "area_name": "서울특별시 강서구 등촌제1동",
            "people_count": 0,
            "latitude": "37.562237",
            "longitude": "126.84367"
        }
    },
    {
        "model": "accounts.livingarea",
        "pk": 244,
        "fields": {
            "area_name": "서울특별시 강서구 등촌제2동",
            "people_count": 0,
            "latitude": "37.562237",
            "longitude": "126.84367"
        }
    },
    {
        "model": "accounts.livingarea",
        "pk": 245,
        "fields": {
            "area_name": "서울특별시 강서구 등촌제3동",
            "people_count": 0,
            "latitude": "37.562237",
            "longitude": "126.84367"
        }
    },
    {
        "model": "accounts.livingarea",
        "pk": 246,
        "fields": {
            "area_name": "서울특별시 강서구 화곡제1동",
            "people_count": 0,
            "latitude": "37.536285",
            "longitude": "126.84895"
        }
    },
    {
        "model": "accounts.livingarea",
        "pk": 247,
        "fields": {
            "area_name": "서울특별시 강서구 화곡제2동",
            "people_count": 0,
            "latitude": "37.536285",
            "longitude": "126.84895"
        }
    },
    {
        "model": "accounts.livingarea",
        "pk": 248,
        "fields": {
            "area_name": "서울특별시 강서구 화곡제3동",
            "people_count": 0,
            "latitude": "37.536285",
            "longitude": "126.84895"
        }
    },
    {
        "model": "accounts.livingarea",
        "pk": 249,
        "fields": {
            "area_name": "서울특별시 강서구 화곡제4동",
            "people_count": 0,
            "latitude": "37.536285",
            "longitude": "126.84895"
        }
    },
    {
        "model": "accounts.livingarea",
        "pk": 250,
        "fields": {
            "area_name": "서울특별시 강서구 화곡본동",
            "people_count": 0,
            "latitude": "37.536285",
            "longitude": "126.84895"
        }
    },
    {
        "model": "accounts.livingarea",
        "pk": 251,
        "fields": {
            "area_name": "서울특별시 강서구 화곡제6동",
            "people_count": 0,
            "latitude": "37.536285",
            "longitude": "126.84895"
        }
    },
    {
        "model": "accounts.livingarea",
        "pk": 252,
        "fields": {
            "area_name": "서울특별시 강서구 화곡제8동",
            "people_count": 0,
            "latitude": "37.536285",
            "longitude": "126.84895"
        }
    },
    {
        "model": "accounts.livingarea",
        "pk": 253,
        "fields": {
            "area_name": "서울특별시 강서구 가양제1동",
            "people_count": 0,
            "latitude": "37.569366",
            "longitude": "126.84732"
        }
    },
    {
        "model": "accounts.livingarea",
        "pk": 254,
        "fields": {
            "area_name": "서울특별시 강서구 가양제2동",
            "people_count": 0,
            "latitude": "37.569366",
            "longitude": "126.84732"
        }
    },
    {
        "model": "accounts.livingarea",
        "pk": 255,
        "fields": {
            "area_name": "서울특별시 강서구 가양제3동",
            "people_count": 0,
            "latitude": "37.569366",
            "longitude": "126.84732"
        }
    },
    {
        "model": "accounts.livingarea",
        "pk": 256,
        "fields": {
            "area_name": "서울특별시 강서구 발산제1동",
            "people_count": 0,
            "latitude": "37.574787",
            "longitude": "126.83021"
        }
    },
    {
        "model": "accounts.livingarea",
        "pk": 257,
        "fields": {
            "area_name": "서울특별시 강서구 우장산동",
            "people_count": 0,
            "latitude": "37.536285",
            "longitude": "126.84895"
        }
    },
    {
        "model": "accounts.livingarea",
        "pk": 258,
        "fields": {
            "area_name": "서울특별시 강서구 공항동",
            "people_count": 0,
            "latitude": "37.574787",
            "longitude": "126.83021"
        }
    },
    {
        "model": "accounts.livingarea",
        "pk": 259,
        "fields": {
            "area_name": "서울특별시 강서구 방화제1동",
            "people_count": 0,
            "latitude": "37.574787",
            "longitude": "126.83021"
        }
    },
    {
        "model": "accounts.livingarea",
        "pk": 260,
        "fields": {
            "area_name": "서울특별시 강서구 방화제2동",
            "people_count": 0,
            "latitude": "37.57131",
            "longitude": "126.81182"
        }
    },
    {
        "model": "accounts.livingarea",
        "pk": 261,
        "fields": {
            "area_name": "서울특별시 강서구 방화제3동",
            "people_count": 0,
            "latitude": "37.57131",
            "longitude": "126.81182"
        }
    },
    {
        "model": "accounts.livingarea",
        "pk": 262,
        "fields": {
            "area_name": "서울특별시 구로구 신도림동",
            "people_count": 0,
            "latitude": "37.507782",
            "longitude": "126.88061"
        }
    },
    {
        "model": "accounts.livingarea",
        "pk": 263,
        "fields": {
            "area_name": "서울특별시 구로구 구로제1동",
            "people_count": 0,
            "latitude": "37.49577",
            "longitude": "126.882645"
        }
    },
    {
        "model": "accounts.livingarea",
        "pk": 264,
        "fields": {
            "area_name": "서울특별시 구로구 구로제2동",
            "people_count": 0,
            "latitude": "37.49577",
            "longitude": "126.882645"
        }
    },
    {
        "model": "accounts.livingarea",
        "pk": 265,
        "fields": {
            "area_name": "서울특별시 구로구 구로제3동",
            "people_count": 0,
            "latitude": "37.49577",
            "longitude": "126.882645"
        }
    },
    {
        "model": "accounts.livingarea",
        "pk": 266,
        "fields": {
            "area_name": "서울특별시 구로구 구로제4동",
            "people_count": 0,
            "latitude": "37.49577",
            "longitude": "126.882645"
        }
    },
    {
        "model": "accounts.livingarea",
        "pk": 267,
        "fields": {
            "area_name": "서울특별시 구로구 구로제5동",
            "people_count": 0,
            "latitude": "37.49577",
            "longitude": "126.882645"
        }
    },
    {
        "model": "accounts.livingarea",
        "pk": 268,
        "fields": {
            "area_name": "서울특별시 구로구 가리봉동",
            "people_count": 0,
            "latitude": "37.482533",
            "longitude": "126.88972"
        }
    },
    {
        "model": "accounts.livingarea",
        "pk": 269,
        "fields": {
            "area_name": "서울특별시 구로구 고척제1동",
            "people_count": 0,
            "latitude": "37.501396",
            "longitude": "126.863556"
        }
    },
    {
        "model": "accounts.livingarea",
        "pk": 270,
        "fields": {
            "area_name": "서울특별시 구로구 고척제2동",
            "people_count": 0,
            "latitude": "37.501396",
            "longitude": "126.863556"
        }
    },
    {
        "model": "accounts.livingarea",
        "pk": 271,
        "fields": {
            "area_name": "서울특별시 구로구 개봉제1동",
            "people_count": 0,
            "latitude": "37.49301",
            "longitude": "126.85775"
        }
    },
    {
        "model": "accounts.livingarea",
        "pk": 272,
        "fields": {
            "area_name": "서울특별시 구로구 개봉제2동",
            "people_count": 0,
            "latitude": "37.49301",
            "longitude": "126.85775"
        }
    },
    {
        "model": "accounts.livingarea",
        "pk": 273,
        "fields": {
            "area_name": "서울특별시 구로구 개봉제3동",
            "people_count": 0,
            "latitude": "37.49301",
            "longitude": "126.85775"
        }
    },
    {
        "model": "accounts.livingarea",
        "pk": 274,
        "fields": {
            "area_name": "서울특별시 구로구 오류제1동",
            "people_count": 0,
            "latitude": "37.488945",
            "longitude": "126.835495"
        }
    },
    {
        "model": "accounts.livingarea",
        "pk": 275,
        "fields": {
            "area_name": "서울특별시 구로구 오류제2동",
            "people_count": 0,
            "latitude": "37.488945",
            "longitude": "126.835495"
        }
    },
    {
        "model": "accounts.livingarea",
        "pk": 276,
        "fields": {
            "area_name": "서울특별시 구로구 항동",
            "people_count": 0,
            "latitude": "37.480186",
            "longitude": "126.82341"
        }
    },
    {
        "model": "accounts.livingarea",
        "pk": 277,
        "fields": {
            "area_name": "서울특별시 구로구 수궁동",
            "people_count": 0,
            "latitude": "37.501873",
            "longitude": "126.82745"
        }
    },
    {
        "model": "accounts.livingarea",
        "pk": 278,
        "fields": {
            "area_name": "서울특별시 금천구 가산동",
            "people_count": 0,
            "latitude": "37.476875",
            "longitude": "126.89178"
        }
    },
    {
        "model": "accounts.livingarea",
        "pk": 279,
        "fields": {
            "area_name": "서울특별시 금천구 독산제1동",
            "people_count": 0,
            "latitude": "37.468143",
            "longitude": "126.89939"
        }
    },
    {
        "model": "accounts.livingarea",
        "pk": 280,
        "fields": {
            "area_name": "서울특별시 금천구 독산제2동",
            "people_count": 0,
            "latitude": "37.468143",
            "longitude": "126.89939"
        }
    },
    {
        "model": "accounts.livingarea",
        "pk": 281,
        "fields": {
            "area_name": "서울특별시 금천구 독산제3동",
            "people_count": 0,
            "latitude": "37.468143",
            "longitude": "126.89939"
        }
    },
    {
        "model": "accounts.livingarea",
        "pk": 282,
        "fields": {
            "area_name": "서울특별시 금천구 독산제4동",
            "people_count": 0,
            "latitude": "37.468143",
            "longitude": "126.89939"
        }
    },
    {
        "model": "accounts.livingarea",
        "pk": 283,
        "fields": {
            "area_name": "서울특별시 금천구 시흥제1동",
            "people_count": 0,
            "latitude": "37.44767",
            "longitude": "126.908455"
        }
    },
    {
        "model": "accounts.livingarea",
        "pk": 284,
        "fields": {
            "area_name": "서울특별시 금천구 시흥제2동",
            "people_count": 0,
            "latitude": "37.44767",
            "longitude": "126.908455"
        }
    },
    {
        "model": "accounts.livingarea",
        "pk": 285,
        "fields": {
            "area_name": "서울특별시 금천구 시흥제3동",
            "people_count": 0,
            "latitude": "37.44767",
            "longitude": "126.908455"
        }
    },
    {
        "model": "accounts.livingarea",
        "pk": 286,
        "fields": {
            "area_name": "서울특별시 금천구 시흥제4동",
            "people_count": 0,
            "latitude": "37.44767",
            "longitude": "126.908455"
        }
    },
    {
        "model": "accounts.livingarea",
        "pk": 287,
        "fields": {
            "area_name": "서울특별시 금천구 시흥제5동",
            "people_count": 0,
            "latitude": "37.44767",
            "longitude": "126.908455"
        }
    },
    {
        "model": "accounts.livingarea",
        "pk": 288,
        "fields": {
            "area_name": "서울특별시 영등포구 영등포본동",
            "people_count": 0,
            "latitude": "37.513412",
            "longitude": "126.906166"
        }
    },
    {
        "model": "accounts.livingarea",
        "pk": 289,
        "fields": {
            "area_name": "서울특별시 영등포구 영등포동",
            "people_count": 0,
            "latitude": "37.513412",
            "longitude": "126.906166"
        }
    },
    {
        "model": "accounts.livingarea",
        "pk": 290,
        "fields": {
            "area_name": "광주광역시 북구 중앙동",
            "people_count": 0,
            "latitude": "35.159622",
            "longitude": "126.90428"
        }
    },
    {
        "model": "accounts.livingarea",
        "pk": 291,
        "fields": {
            "area_name": "대전광역시 동구 중앙동",
            "people_count": 0,
            "latitude": "36.327377",
            "longitude": "127.43418"
        }
    },
    {
        "model": "accounts.livingarea",
        "pk": 292,
        "fields": {
            "area_name": "서울특별시 영등포구 여의동",
            "people_count": 0,
            "latitude": "37.526787",
            "longitude": "126.93017"
        }
    },
    {
        "model": "accounts.livingarea",
        "pk": 293,
        "fields": {
            "area_name": "서울특별시 영등포구 당산제1동",
            "people_count": 0,
            "latitude": "37.521664",
            "longitude": "126.898544"
        }
    },
    {
        "model": "accounts.livingarea",
        "pk": 294,
        "fields": {
            "area_name": "경기도 군포시 군포2동",
            "people_count": 0,
            "latitude": "37.3485",
            "longitude": "126.9413"
        }
    },
    {
        "model": "accounts.livingarea",
        "pk": 295,
        "fields": {
            "area_name": "서울특별시 영등포구 당산제2동",
            "people_count": 0,
            "latitude": "37.529064",
            "longitude": "126.89908"
        }
    },
    {
        "model": "accounts.livingarea",
        "pk": 296,
        "fields": {
            "area_name": "서울특별시 영등포구 도림동",
            "people_count": 0,
            "latitude": "37.509438",
            "longitude": "126.89594"
        }
    },
    {
        "model": "accounts.livingarea",
        "pk": 297,
        "fields": {
            "area_name": "서울특별시 영등포구 문래동",
            "people_count": 0,
            "latitude": "37.51228",
            "longitude": "126.89698"
        }
    },
    {
        "model": "accounts.livingarea",
        "pk": 298,
        "fields": {
            "area_name": "서울특별시 영등포구 양평제1동",
            "people_count": 0,
            "latitude": "37.52346",
            "longitude": "126.88822"
        }
    },
    {
        "model": "accounts.livingarea",
        "pk": 299,
        "fields": {
            "area_name": "서울특별시 영등포구 양평제2동",
            "people_count": 0,
            "latitude": "37.52937",
            "longitude": "126.891014"
        }
    },
    {
        "model": "accounts.livingarea",
        "pk": 300,
        "fields": {
            "area_name": "서울특별시 영등포구 신길제1동",
            "people_count": 0,
            "latitude": "37.504166",
            "longitude": "126.91407"
        }
    },
    {
        "model": "accounts.livingarea",
        "pk": 301,
        "fields": {
            "area_name": "서울특별시 영등포구 신길제3동",
            "people_count": 0,
            "latitude": "37.504166",
            "longitude": "126.91407"
        }
    },
    {
        "model": "accounts.livingarea",
        "pk": 302,
        "fields": {
            "area_name": "서울특별시 영등포구 신길제4동",
            "people_count": 0,
            "latitude": "37.504166",
            "longitude": "126.91407"
        }
    },
    {
        "model": "accounts.livingarea",
        "pk": 303,
        "fields": {
            "area_name": "서울특별시 영등포구 신길제5동",
            "people_count": 0,
            "latitude": "37.504166",
            "longitude": "126.91407"
        }
    },
    {
        "model": "accounts.livingarea",
        "pk": 304,
        "fields": {
            "area_name": "서울특별시 영등포구 신길제6동",
            "people_count": 0,
            "latitude": "37.504166",
            "longitude": "126.91407"
        }
    },
    {
        "model": "accounts.livingarea",
        "pk": 305,
        "fields": {
            "area_name": "서울특별시 영등포구 신길제7동",
            "people_count": 0,
            "latitude": "37.504166",
            "longitude": "126.91407"
        }
    },
    {
        "model": "accounts.livingarea",
        "pk": 306,
        "fields": {
            "area_name": "서울특별시 영등포구 대림제1동",
            "people_count": 0,
            "latitude": "37.492508",
            "longitude": "126.90201"
        }
    },
    {
        "model": "accounts.livingarea",
        "pk": 307,
        "fields": {
            "area_name": "서울특별시 영등포구 대림제2동",
            "people_count": 0,
            "latitude": "37.492508",
            "longitude": "126.90201"
        }
    },
    {
        "model": "accounts.livingarea",
        "pk": 308,
        "fields": {
            "area_name": "서울특별시 영등포구 대림제3동",
            "people_count": 0,
            "latitude": "37.492508",
            "longitude": "126.90201"
        }
    },
    {
        "model": "accounts.livingarea",
        "pk": 309,
        "fields": {
            "area_name": "서울특별시 동작구 노량진제1동",
            "people_count": 0,
            "latitude": "37.510704",
            "longitude": "126.94039"
        }
    },
    {
        "model": "accounts.livingarea",
        "pk": 310,
        "fields": {
            "area_name": "서울특별시 동작구 노량진제2동",
            "people_count": 0,
            "latitude": "37.510704",
            "longitude": "126.94039"
        }
    },
    {
        "model": "accounts.livingarea",
        "pk": 311,
        "fields": {
            "area_name": "서울특별시 동작구 상도제1동",
            "people_count": 0,
            "latitude": "37.498516",
            "longitude": "126.93901"
        }
    },
    {
        "model": "accounts.livingarea",
        "pk": 312,
        "fields": {
            "area_name": "서울특별시 동작구 상도제2동",
            "people_count": 0,
            "latitude": "37.498516",
            "longitude": "126.93901"
        }
    },
    {
        "model": "accounts.livingarea",
        "pk": 313,
        "fields": {
            "area_name": "서울특별시 동작구 상도제3동",
            "people_count": 0,
            "latitude": "37.498516",
            "longitude": "126.93901"
        }
    },
    {
        "model": "accounts.livingarea",
        "pk": 314,
        "fields": {
            "area_name": "서울특별시 동작구 상도제4동",
            "people_count": 0,
            "latitude": "37.498516",
            "longitude": "126.93901"
        }
    },
    {
        "model": "accounts.livingarea",
        "pk": 315,
        "fields": {
            "area_name": "서울특별시 동작구 흑석동",
            "people_count": 0,
            "latitude": "37.505775",
            "longitude": "126.96659"
        }
    },
    {
        "model": "accounts.livingarea",
        "pk": 316,
        "fields": {
            "area_name": "서울특별시 동작구 사당제1동",
            "people_count": 0,
            "latitude": "37.483932",
            "longitude": "126.97314"
        }
    },
    {
        "model": "accounts.livingarea",
        "pk": 317,
        "fields": {
            "area_name": "서울특별시 동작구 사당제2동",
            "people_count": 0,
            "latitude": "37.499214",
            "longitude": "126.97388"
        }
    },
    {
        "model": "accounts.livingarea",
        "pk": 318,
        "fields": {
            "area_name": "서울특별시 동작구 사당제3동",
            "people_count": 0,
            "latitude": "37.483932",
            "longitude": "126.97314"
        }
    },
    {
        "model": "accounts.livingarea",
        "pk": 319,
        "fields": {
            "area_name": "서울특별시 동작구 사당제4동",
            "people_count": 0,
            "latitude": "37.483932",
            "longitude": "126.97314"
        }
    },
    {
        "model": "accounts.livingarea",
        "pk": 320,
        "fields": {
            "area_name": "서울특별시 동작구 사당제5동",
            "people_count": 0,
            "latitude": "37.483932",
            "longitude": "126.97314"
        }
    },
    {
        "model": "accounts.livingarea",
        "pk": 321,
        "fields": {
            "area_name": "서울특별시 동작구 대방동",
            "people_count": 0,
            "latitude": "37.508163",
            "longitude": "126.926346"
        }
    },
    {
        "model": "accounts.livingarea",
        "pk": 322,
        "fields": {
            "area_name": "서울특별시 동작구 신대방제1동",
            "people_count": 0,
            "latitude": "37.49301",
            "longitude": "126.91494"
        }
    },
    {
        "model": "accounts.livingarea",
        "pk": 323,
        "fields": {
            "area_name": "서울특별시 동작구 신대방제2동",
            "people_count": 0,
            "latitude": "37.49301",
            "longitude": "126.91494"
        }
    },
    {
        "model": "accounts.livingarea",
        "pk": 324,
        "fields": {
            "area_name": "서울특별시 관악구 보라매동",
            "people_count": 0,
            "latitude": "37.48254",
            "longitude": "126.95216"
        }
    },
    {
        "model": "accounts.livingarea",
        "pk": 325,
        "fields": {
            "area_name": "서울특별시 관악구 청림동",
            "people_count": 0,
            "latitude": "37.48254",
            "longitude": "126.95216"
        }
    },
    {
        "model": "accounts.livingarea",
        "pk": 326,
        "fields": {
            "area_name": "서울특별시 관악구 성현동",
            "people_count": 0,
            "latitude": "37.48254",
            "longitude": "126.95216"
        }
    },
    {
        "model": "accounts.livingarea",
        "pk": 327,
        "fields": {
            "area_name": "서울특별시 관악구 행운동",
            "people_count": 0,
            "latitude": "37.48254",
            "longitude": "126.95216"
        }
    },
    {
        "model": "accounts.livingarea",
        "pk": 328,
        "fields": {
            "area_name": "서울특별시 관악구 낙성대동",
            "people_count": 0,
            "latitude": "37.48254",
            "longitude": "126.95216"
        }
    },
    {
        "model": "accounts.livingarea",
        "pk": 329,
        "fields": {
            "area_name": "서울특별시 관악구 청룡동",
            "people_count": 0,
            "latitude": "37.48254",
            "longitude": "126.95216"
        }
    },
    {
        "model": "accounts.livingarea",
        "pk": 330,
        "fields": {
            "area_name": "서울특별시 관악구 은천동",
            "people_count": 0,
            "latitude": "37.48254",
            "longitude": "126.95216"
        }
    },
    {
        "model": "accounts.livingarea",
        "pk": 331,
        "fields": {
            "area_name": "서울특별시 관악구 중앙동",
            "people_count": 0,
            "latitude": "37.48254",
            "longitude": "126.95216"
        }
    },
    {
        "model": "accounts.livingarea",
        "pk": 332,
        "fields": {
            "area_name": "서울특별시 관악구 인헌동",
            "people_count": 0,
            "latitude": "37.48254",
            "longitude": "126.95216"
        }
    },
    {
        "model": "accounts.livingarea",
        "pk": 333,
        "fields": {
            "area_name": "서울특별시 관악구 남현동",
            "people_count": 0,
            "latitude": "37.474567",
            "longitude": "126.977844"
        }
    },
    {
        "model": "accounts.livingarea",
        "pk": 334,
        "fields": {
            "area_name": "서울특별시 관악구 서원동",
            "people_count": 0,
            "latitude": "37.48741",
            "longitude": "126.927124"
        }
    },
    {
        "model": "accounts.livingarea",
        "pk": 335,
        "fields": {
            "area_name": "서울특별시 관악구 신원동",
            "people_count": 0,
            "latitude": "37.48741",
            "longitude": "126.927124"
        }
    },
    {
        "model": "accounts.livingarea",
        "pk": 336,
        "fields": {
            "area_name": "서울특별시 관악구 서림동",
            "people_count": 0,
            "latitude": "37.48741",
            "longitude": "126.927124"
        }
    },
    {
        "model": "accounts.livingarea",
        "pk": 337,
        "fields": {
            "area_name": "서울특별시 관악구 신사동",
            "people_count": 0,
            "latitude": "37.48741",
            "longitude": "126.927124"
        }
    },
    {
        "model": "accounts.livingarea",
        "pk": 338,
        "fields": {
            "area_name": "서울특별시 관악구 신림동",
            "people_count": 0,
            "latitude": "37.48741",
            "longitude": "126.927124"
        }
    },
    {
        "model": "accounts.livingarea",
        "pk": 339,
        "fields": {
            "area_name": "서울특별시 관악구 난향동",
            "people_count": 0,
            "latitude": "37.48741",
            "longitude": "126.927124"
        }
    },
    {
        "model": "accounts.livingarea",
        "pk": 340,
        "fields": {
            "area_name": "서울특별시 관악구 조원동",
            "people_count": 0,
            "latitude": "37.48741",
            "longitude": "126.927124"
        }
    },
    {
        "model": "accounts.livingarea",
        "pk": 341,
        "fields": {
            "area_name": "서울특별시 관악구 대학동",
            "people_count": 0,
            "latitude": "37.48741",
            "longitude": "126.927124"
        }
    },
    {
        "model": "accounts.livingarea",
        "pk": 342,
        "fields": {
            "area_name": "서울특별시 관악구 삼성동",
            "people_count": 0,
            "latitude": "37.48741",
            "longitude": "126.927124"
        }
    },
    {
        "model": "accounts.livingarea",
        "pk": 343,
        "fields": {
            "area_name": "서울특별시 관악구 미성동",
            "people_count": 0,
            "latitude": "37.48741",
            "longitude": "126.927124"
        }
    },
    {
        "model": "accounts.livingarea",
        "pk": 344,
        "fields": {
            "area_name": "서울특별시 관악구 난곡동",
            "people_count": 0,
            "latitude": "37.48741",
            "longitude": "126.927124"
        }
    },
    {
        "model": "accounts.livingarea",
        "pk": 345,
        "fields": {
            "area_name": "서울특별시 서초구 서초1동",
            "people_count": 0,
            "latitude": "37.490086",
            "longitude": "127.01953"
        }
    },
    {
        "model": "accounts.livingarea",
        "pk": 346,
        "fields": {
            "area_name": "서울특별시 서초구 서초2동",
            "people_count": 0,
            "latitude": "37.490086",
            "longitude": "127.01953"
        }
    },
    {
        "model": "accounts.livingarea",
        "pk": 347,
        "fields": {
            "area_name": "서울특별시 서초구 서초3동",
            "people_count": 0,
            "latitude": "37.483414",
            "longitude": "126.994484"
        }
    },
    {
        "model": "accounts.livingarea",
        "pk": 348,
        "fields": {
            "area_name": "서울특별시 서초구 서초4동",
            "people_count": 0,
            "latitude": "37.490086",
            "longitude": "127.01953"
        }
    },
    {
        "model": "accounts.livingarea",
        "pk": 349,
        "fields": {
            "area_name": "서울특별시 서초구 잠원동",
            "people_count": 0,
            "latitude": "37.51492",
            "longitude": "127.0141"
        }
    },
    {
        "model": "accounts.livingarea",
        "pk": 350,
        "fields": {
            "area_name": "서울특별시 서초구 반포본동",
            "people_count": 0,
            "latitude": "37.505146",
            "longitude": "127.01336"
        }
    },
    {
        "model": "accounts.livingarea",
        "pk": 351,
        "fields": {
            "area_name": "서울특별시 서초구 반포1동",
            "people_count": 0,
            "latitude": "37.505146",
            "longitude": "127.01336"
        }
    },
    {
        "model": "accounts.livingarea",
        "pk": 352,
        "fields": {
            "area_name": "서울특별시 서초구 반포2동",
            "people_count": 0,
            "latitude": "37.505146",
            "longitude": "127.01336"
        }
    },
    {
        "model": "accounts.livingarea",
        "pk": 353,
        "fields": {
            "area_name": "서울특별시 서초구 반포3동",
            "people_count": 0,
            "latitude": "37.51492",
            "longitude": "127.0141"
        }
    },
    {
        "model": "accounts.livingarea",
        "pk": 354,
        "fields": {
            "area_name": "서울특별시 서초구 반포4동",
            "people_count": 0,
            "latitude": "37.505146",
            "longitude": "127.01336"
        }
    },
    {
        "model": "accounts.livingarea",
        "pk": 355,
        "fields": {
            "area_name": "서울특별시 서초구 방배본동",
            "people_count": 0,
            "latitude": "37.483414",
            "longitude": "126.994484"
        }
    },
    {
        "model": "accounts.livingarea",
        "pk": 356,
        "fields": {
            "area_name": "서울특별시 서초구 방배1동",
            "people_count": 0,
            "latitude": "37.483414",
            "longitude": "126.994484"
        }
    },
    {
        "model": "accounts.livingarea",
        "pk": 357,
        "fields": {
            "area_name": "서울특별시 서초구 방배2동",
            "people_count": 0,
            "latitude": "37.483414",
            "longitude": "126.994484"
        }
    },
    {
        "model": "accounts.livingarea",
        "pk": 358,
        "fields": {
            "area_name": "서울특별시 서초구 방배3동",
            "people_count": 0,
            "latitude": "37.483414",
            "longitude": "126.994484"
        }
    },
    {
        "model": "accounts.livingarea",
        "pk": 359,
        "fields": {
            "area_name": "서울특별시 서초구 방배4동",
            "people_count": 0,
            "latitude": "37.483414",
            "longitude": "126.994484"
        }
    },
    {
        "model": "accounts.livingarea",
        "pk": 360,
        "fields": {
            "area_name": "서울특별시 서초구 양재1동",
            "people_count": 0,
            "latitude": "37.472004",
            "longitude": "127.03746"
        }
    },
    {
        "model": "accounts.livingarea",
        "pk": 361,
        "fields": {
            "area_name": "서울특별시 서초구 양재2동",
            "people_count": 0,
            "latitude": "37.472004",
            "longitude": "127.03746"
        }
    },
    {
        "model": "accounts.livingarea",
        "pk": 362,
        "fields": {
            "area_name": "서울특별시 서초구 내곡동",
            "people_count": 0,
            "latitude": "37.45825",
            "longitude": "127.07692"
        }
    },
    {
        "model": "accounts.livingarea",
        "pk": 363,
        "fields": {
            "area_name": "서울특별시 강남구 신사동",
            "people_count": 0,
            "latitude": "37.523987",
            "longitude": "127.02277"
        }
    },
    {
        "model": "accounts.livingarea",
        "pk": 364,
        "fields": {
            "area_name": "서울특별시 강남구 논현1동",
            "people_count": 0,
            "latitude": "37.512646",
            "longitude": "127.03015"
        }
    },
    {
        "model": "accounts.livingarea",
        "pk": 365,
        "fields": {
            "area_name": "서울특별시 강남구 논현2동",
            "people_count": 0,
            "latitude": "37.512646",
            "longitude": "127.03015"
        }
    },
    {
        "model": "accounts.livingarea",
        "pk": 366,
        "fields": {
            "area_name": "서울특별시 강남구 압구정동",
            "people_count": 0,
            "latitude": "37.523987",
            "longitude": "127.02277"
        }
    },
    {
        "model": "accounts.livingarea",
        "pk": 367,
        "fields": {
            "area_name": "서울특별시 강남구 청담동",
            "people_count": 0,
            "latitude": "37.52503",
            "longitude": "127.04923"
        }
    },
    {
        "model": "accounts.livingarea",
        "pk": 368,
        "fields": {
            "area_name": "서울특별시 강남구 삼성1동",
            "people_count": 0,
            "latitude": "37.514324",
            "longitude": "127.06283"
        }
    },
    {
        "model": "accounts.livingarea",
        "pk": 369,
        "fields": {
            "area_name": "서울특별시 강남구 삼성2동",
            "people_count": 0,
            "latitude": "37.514324",
            "longitude": "127.06283"
        }
    },
    {
        "model": "accounts.livingarea",
        "pk": 370,
        "fields": {
            "area_name": "서울특별시 강남구 대치1동",
            "people_count": 0,
            "latitude": "37.49324",
            "longitude": "127.056694"
        }
    },
    {
        "model": "accounts.livingarea",
        "pk": 371,
        "fields": {
            "area_name": "서울특별시 강남구 대치2동",
            "people_count": 0,
            "latitude": "37.49324",
            "longitude": "127.056694"
        }
    },
    {
        "model": "accounts.livingarea",
        "pk": 372,
        "fields": {
            "area_name": "서울특별시 강남구 대치4동",
            "people_count": 0,
            "latitude": "37.49324",
            "longitude": "127.056694"
        }
    },
    {
        "model": "accounts.livingarea",
        "pk": 373,
        "fields": {
            "area_name": "서울특별시 강남구 역삼1동",
            "people_count": 0,
            "latitude": "37.495365",
            "longitude": "127.033066"
        }
    },
    {
        "model": "accounts.livingarea",
        "pk": 374,
        "fields": {
            "area_name": "서울특별시 강남구 역삼2동",
            "people_count": 0,
            "latitude": "37.495365",
            "longitude": "127.033066"
        }
    },
    {
        "model": "accounts.livingarea",
        "pk": 375,
        "fields": {
            "area_name": "서울특별시 강남구 도곡1동",
            "people_count": 0,
            "latitude": "37.490955",
            "longitude": "127.03848"
        }
    },
    {
        "model": "accounts.livingarea",
        "pk": 376,
        "fields": {
            "area_name": "서울특별시 강남구 도곡2동",
            "people_count": 0,
            "latitude": "37.490955",
            "longitude": "127.03848"
        }
    },
    {
        "model": "accounts.livingarea",
        "pk": 377,
        "fields": {
            "area_name": "서울특별시 강남구 개포1동",
            "people_count": 0,
            "latitude": "37.481926",
            "longitude": "127.05744"
        }
    },
    {
        "model": "accounts.livingarea",
        "pk": 378,
        "fields": {
            "area_name": "서울특별시 강남구 개포2동",
            "people_count": 0,
            "latitude": "37.481926",
            "longitude": "127.05744"
        }
    },
    {
        "model": "accounts.livingarea",
        "pk": 379,
        "fields": {
            "area_name": "서울특별시 강남구 개포4동",
            "people_count": 0,
            "latitude": "37.481926",
            "longitude": "127.05744"
        }
    },
    {
        "model": "accounts.livingarea",
        "pk": 380,
        "fields": {
            "area_name": "서울특별시 강남구 세곡동",
            "people_count": 0,
            "latitude": "37.464443",
            "longitude": "127.10676"
        }
    },
    {
        "model": "accounts.livingarea",
        "pk": 381,
        "fields": {
            "area_name": "서울특별시 강남구 일원본동",
            "people_count": 0,
            "latitude": "37.479565",
            "longitude": "127.08043"
        }
    },
    {
        "model": "accounts.livingarea",
        "pk": 382,
        "fields": {
            "area_name": "서울특별시 강남구 일원1동",
            "people_count": 0,
            "latitude": "37.479565",
            "longitude": "127.08043"
        }
    },
    {
        "model": "accounts.livingarea",
        "pk": 383,
        "fields": {
            "area_name": "서울특별시 강남구 일원2동",
            "people_count": 0,
            "latitude": "37.481926",
            "longitude": "127.05744"
        }
    },
    {
        "model": "accounts.livingarea",
        "pk": 384,
        "fields": {
            "area_name": "서울특별시 강남구 수서동",
            "people_count": 0,
            "latitude": "37.488888",
            "longitude": "127.105"
        }
    },
    {
        "model": "accounts.livingarea",
        "pk": 385,
        "fields": {
            "area_name": "서울특별시 송파구 풍납1동",
            "people_count": 0,
            "latitude": "37.53806",
            "longitude": "127.12222"
        }
    },
    {
        "model": "accounts.livingarea",
        "pk": 386,
        "fields": {
            "area_name": "서울특별시 송파구 풍납2동",
            "people_count": 0,
            "latitude": "37.53806",
            "longitude": "127.12222"
        }
    },
    {
        "model": "accounts.livingarea",
        "pk": 387,
        "fields": {
            "area_name": "서울특별시 송파구 거여1동",
            "people_count": 0,
            "latitude": "37.496925",
            "longitude": "127.14331"
        }
    },
    {
        "model": "accounts.livingarea",
        "pk": 388,
        "fields": {
            "area_name": "서울특별시 송파구 거여2동",
            "people_count": 0,
            "latitude": "37.496925",
            "longitude": "127.14331"
        }
    },
    {
        "model": "accounts.livingarea",
        "pk": 389,
        "fields": {
            "area_name": "서울특별시 송파구 마천1동",
            "people_count": 0,
            "latitude": "37.496025",
            "longitude": "127.1499"
        }
    },
    {
        "model": "accounts.livingarea",
        "pk": 390,
        "fields": {
            "area_name": "서울특별시 송파구 마천2동",
            "people_count": 0,
            "latitude": "37.496025",
            "longitude": "127.1499"
        }
    },
    {
        "model": "accounts.livingarea",
        "pk": 391,
        "fields": {
            "area_name": "서울특별시 송파구 방이1동",
            "people_count": 0,
            "latitude": "37.511013",
            "longitude": "127.123924"
        }
    },
    {
        "model": "accounts.livingarea",
        "pk": 392,
        "fields": {
            "area_name": "서울특별시 송파구 방이2동",
            "people_count": 0,
            "latitude": "37.511013",
            "longitude": "127.123924"
        }
    },
    {
        "model": "accounts.livingarea",
        "pk": 393,
        "fields": {
            "area_name": "서울특별시 송파구 오륜동",
            "people_count": 0,
            "latitude": "37.511013",
            "longitude": "127.123924"
        }
    },
    {
        "model": "accounts.livingarea",
        "pk": 394,
        "fields": {
            "area_name": "서울특별시 송파구 오금동",
            "people_count": 0,
            "latitude": "37.502983",
            "longitude": "127.128105"
        }
    },
    {
        "model": "accounts.livingarea",
        "pk": 395,
        "fields": {
            "area_name": "서울특별시 송파구 송파1동",
            "people_count": 0,
            "latitude": "37.506092",
            "longitude": "127.10958"
        }
    },
    {
        "model": "accounts.livingarea",
        "pk": 396,
        "fields": {
            "area_name": "서울특별시 송파구 송파2동",
            "people_count": 0,
            "latitude": "37.506092",
            "longitude": "127.10958"
        }
    },
    {
        "model": "accounts.livingarea",
        "pk": 397,
        "fields": {
            "area_name": "서울특별시 송파구 석촌동",
            "people_count": 0,
            "latitude": "37.503563",
            "longitude": "127.10367"
        }
    },
    {
        "model": "accounts.livingarea",
        "pk": 398,
        "fields": {
            "area_name": "서울특별시 송파구 삼전동",
            "people_count": 0,
            "latitude": "37.502724",
            "longitude": "127.09252"
        }
    },
    {
        "model": "accounts.livingarea",
        "pk": 399,
        "fields": {
            "area_name": "서울특별시 송파구 가락본동",
            "people_count": 0,
            "latitude": "37.496544",
            "longitude": "127.10573"
        }
    },
    {
        "model": "accounts.livingarea",
        "pk": 400,
        "fields": {
            "area_name": "서울특별시 송파구 가락1동",
            "people_count": 0,
            "latitude": "37.496544",
            "longitude": "127.10573"
        }
    },